{
    "type": "FeatureCollection",
    "crs": {
        "type": "name",
        "properties": {
            "name": "urn:ogc:def:crs:OGC:1.3:CRS84"
        }
    },
    "features": [
        {
            "type": "Feature",
            "properties": {
                "name": "陳彥銘耳鼻喉科診所",
                "type": "兒童醫療補助特約醫療院所",
                "phone": "(02)28381770",
                "address": "臺北市士林區士東路12號之1號",
                "district": "士林區"
            },
            "geometry": {
                "type": "Point",
                "coordinates": [
                    121.52672999609575,
                    25.11166998888909
                ]
            }
        },
        {
            "type": "Feature",
            "properties": {
                "name": "蘇慧卿診所",
                "type": "兒童醫療補助特約醫療院所",
                "phone": "(02)28829955",
                "address": "臺北市士林區大南路274號",
                "district": "士林區"
            },
            "geometry": {
                "type": "Point",
                "coordinates": [
                    121.51967997733487,
                    25.08873999355768
                ]
            }
        },
        {
            "type": "Feature",
            "properties": {
                "name": "貝爾診所",
                "type": "兒童醫療補助特約醫療院所",
                "phone": "(02)28729980",
                "address": "臺北市士林區中山北路七段82巷9號1樓",
                "district": "士林區"
            },
            "geometry": {
                "type": "Point",
                "coordinates": [
                    121.53244997446075,
                    25.121330006570247
                ]
            }
        },
        {
            "type": "Feature",
            "properties": {
                "name": "佩佩婦幼診所",
                "type": "兒童醫療補助特約醫療院所",
                "phone": "(02)28386262",
                "address": "臺北市士林區中山北路六段182號",
                "district": "士林區"
            },
            "geometry": {
                "type": "Point",
                "coordinates": [
                    121.52518998902531,
                    25.107579997325118
                ]
            }
        },
        {
            "type": "Feature",
            "properties": {
                "name": "張虔熙小兒科診所",
                "type": "兒童醫療補助特約醫療院所",
                "phone": "(02)28361368",
                "address": "臺北市士林區中山北路六段282號",
                "district": "士林區"
            },
            "geometry": {
                "type": "Point",
                "coordinates": [
                    121.52561000619346,
                    25.110079983766227
                ]
            }
        },
        {
            "type": "Feature",
            "properties": {
                "name": "士林小兒科診所",
                "type": "兒童醫療補助特約醫療院所",
                "phone": "(02)28812485",
                "address": "臺北市士林區中正路249號1樓",
                "district": "士林區"
            },
            "geometry": {
                "type": "Point",
                "coordinates": [
                    121.52531999234355,
                    25.095020008783337
                ]
            }
        },
        {
            "type": "Feature",
            "properties": {
                "name": "小禾馨士林小兒專科診所",
                "type": "兒童醫療補助特約醫療院所",
                "phone": "(02)28827333",
                "address": "臺北市士林區中正路289號",
                "district": "士林區"
            },
            "geometry": {
                "type": "Point",
                "coordinates": [
                    121.5240099846963,
                    25.094720020468685
                ]
            }
        },
        {
            "type": "Feature",
            "properties": {
                "name": "耀明診所",
                "type": "兒童醫療補助特約醫療院所",
                "phone": "(02)28320657",
                "address": "臺北市士林區中正路322號",
                "district": "士林區"
            },
            "geometry": {
                "type": "Point",
                "coordinates": [
                    121.52256997373075,
                    25.09471000409438
                ]
            }
        },
        {
            "type": "Feature",
            "properties": {
                "name": "臺北市立聯合醫院附設士林門診部",
                "type": "兒童醫療補助特約醫療院所",
                "phone": "(02)28836268",
                "address": "臺北市士林區中正路439號1樓",
                "district": "士林區"
            },
            "geometry": {
                "type": "Point",
                "coordinates": [
                    121.51951996680327,
                    25.09266000012525
                ]
            }
        },
        {
            "type": "Feature",
            "properties": {
                "name": "新光醫療財團法人新光吳火獅紀念醫院",
                "type": "兒童醫療補助特約醫療院所",
                "phone": "(02)28332211",
                "address": "臺北市士林區文昌路95號",
                "district": "士林區"
            },
            "geometry": {
                "type": "Point",
                "coordinates": [
                    121.52032001946134,
                    25.09628001837818
                ]
            }
        },
        {
            "type": "Feature",
            "properties": {
                "name": "士林同仁中醫診所",
                "type": "兒童醫療補助特約醫療院所",
                "phone": "(02)28883889",
                "address": "臺北市士林區文林路402號（實際使用：1、2樓）",
                "district": "士林區"
            },
            "geometry": {
                "type": "Point",
                "coordinates": [
                    121.52504003677751,
                    25.09385999529337
                ]
            }
        },
        {
            "type": "Feature",
            "properties": {
                "name": "存德小兒科診所",
                "type": "兒童醫療補助特約醫療院所",
                "phone": "(02)28342567",
                "address": "臺北市士林區文林路460號",
                "district": "士林區"
            },
            "geometry": {
                "type": "Point",
                "coordinates": [
                    121.52456000518265,
                    25.09563000178693
                ]
            }
        },
        {
            "type": "Feature",
            "properties": {
                "name": "榮清耳鼻喉科診所",
                "type": "兒童醫療補助特約醫療院所",
                "phone": "(02)28316878",
                "address": "臺北市士林區文林路483號（1樓）",
                "district": "士林區"
            },
            "geometry": {
                "type": "Point",
                "coordinates": [
                    121.52420997690604,
                    25.096170005898998
                ]
            }
        },
        {
            "type": "Feature",
            "properties": {
                "name": "邱世昌診所",
                "type": "兒童醫療補助特約醫療院所",
                "phone": "(02)28328088",
                "address": "臺北市士林區文林路718號",
                "district": "士林區"
            },
            "geometry": {
                "type": "Point",
                "coordinates": [
                    121.52085998166393,
                    25.102479986428506
                ]
            }
        },
        {
            "type": "Feature",
            "properties": {
                "name": "蕭雨青小兒科診所",
                "type": "兒童醫療補助特約醫療院所",
                "phone": "(02)28126415",
                "address": "臺北市士林區延平北路5段292號1樓",
                "district": "士林區"
            },
            "geometry": {
                "type": "Point",
                "coordinates": [
                    121.50969000603521,
                    25.0856899866302
                ]
            }
        },
        {
            "type": "Feature",
            "properties": {
                "name": "天母品恆復健科診所",
                "type": "兒童醫療補助特約醫療院所",
                "phone": "(02)28386855",
                "address": "臺北市士林區忠誠路一段135、137、157號",
                "district": "士林區"
            },
            "geometry": {
                "type": "Point",
                "coordinates": [
                    121.52974658219189,
                    25.10635903637218
                ]
            }
        },
        {
            "type": "Feature",
            "properties": {
                "name": "忠誠聯合診所",
                "type": "兒童醫療補助特約醫療院所",
                "phone": "(02)88661176",
                "address": "臺北市士林區忠誠路二段50巷35號",
                "district": "士林區"
            },
            "geometry": {
                "type": "Point",
                "coordinates": [
                    121.52915001918058,
                    25.110790014784214
                ]
            }
        },
        {
            "type": "Feature",
            "properties": {
                "name": "愛林診所",
                "type": "兒童醫療補助特約醫療院所",
                "phone": "(02)28836881",
                "address": "臺北市士林區承德路四段222號",
                "district": "士林區"
            },
            "geometry": {
                "type": "Point",
                "coordinates": [
                    121.5215000237904,
                    25.08844000524303
                ]
            }
        },
        {
            "type": "Feature",
            "properties": {
                "name": "李世澤小兒科內科診所",
                "type": "兒童醫療補助特約醫療院所",
                "phone": "(02)28111472",
                "address": "臺北市士林區社子街67號",
                "district": "士林區"
            },
            "geometry": {
                "type": "Point",
                "coordinates": [
                    121.50670998799927,
                    25.087509991176205
                ]
            }
        },
        {
            "type": "Feature",
            "properties": {
                "name": "科安診所",
                "type": "兒童醫療補助特約醫療院所",
                "phone": "(02)28110699",
                "address": "臺北市士林區社中街116號",
                "district": "士林區"
            },
            "geometry": {
                "type": "Point",
                "coordinates": [
                    121.51038000430464,
                    25.08983999262091
                ]
            }
        },
        {
            "type": "Feature",
            "properties": {
                "name": "粱耳鼻喉科診所",
                "type": "兒童醫療補助特約醫療院所",
                "phone": "(02)28168456",
                "address": "臺北市士林區社正路12-1號",
                "district": "士林區"
            },
            "geometry": {
                "type": "Point",
                "coordinates": [
                    121.50927996333189,
                    25.088520010508844
                ]
            }
        },
        {
            "type": "Feature",
            "properties": {
                "name": "臺北市立聯合醫院陽明院區",
                "type": "兒童醫療補助特約醫療院所",
                "phone": "(02)25553000",
                "address": "臺北市士林區雨聲街105號",
                "district": "士林區"
            },
            "geometry": {
                "type": "Point",
                "coordinates": [
                    121.53156995844637,
                    25.105189981453677
                ]
            }
        },
        {
            "type": "Feature",
            "properties": {
                "name": "昕新診所",
                "type": "兒童醫療補助特約醫療院所",
                "phone": "(02)77095157",
                "address": "臺北市士林區基河路250號",
                "district": "士林區"
            },
            "geometry": {
                "type": "Point",
                "coordinates": [
                    121.52098998498218,
                    25.091640006327836
                ]
            }
        },
        {
            "type": "Feature",
            "properties": {
                "name": "何小兒科診所",
                "type": "兒童醫療補助特約醫療院所",
                "phone": "(02)28827401",
                "address": "臺北市士林區福港街176號",
                "district": "士林區"
            },
            "geometry": {
                "type": "Point",
                "coordinates": [
                    121.5176799714182,
                    25.086650007910393
                ]
            }
        },
        {
            "type": "Feature",
            "properties": {
                "name": "嘉櫻小兒科診所",
                "type": "兒童醫療補助特約醫療院所",
                "phone": "(02)88666202",
                "address": "臺北市士林區德行西路119號1樓",
                "district": "士林區"
            },
            "geometry": {
                "type": "Point",
                "coordinates": [
                    121.52053996060067,
                    25.10393001376835
                ]
            }
        },
        {
            "type": "Feature",
            "properties": {
                "name": "樹爸爸親子診所",
                "type": "兒童醫療補助特約醫療院所",
                "phone": "(02)28381838",
                "address": "臺北市士林區德行東路286號",
                "district": "士林區"
            },
            "geometry": {
                "type": "Point",
                "coordinates": [
                    121.53598001298309,
                    25.10994998044798
                ]
            }
        },
        {
            "type": "Feature",
            "properties": {
                "name": "橙光耳鼻喉科診所",
                "type": "兒童醫療補助特約醫療院所",
                "phone": "(02)28883222",
                "address": "臺北市士林區大南路２８６號",
                "district": "士林區"
            },
            "geometry": {
                "type": "Point",
                "coordinates": [
                    121.51931997459349,
                    25.08880998244919
                ]
            }
        },
        {
            "type": "Feature",
            "properties": {
                "name": "德泰耳鼻喉科診所",
                "type": "兒童醫療補助特約醫療院所",
                "phone": "(02)28851570",
                "address": "臺北市士林區通河街42-1號",
                "district": "士林區"
            },
            "geometry": {
                "type": "Point",
                "coordinates": [
                    121.52144000936369,
                    25.080460014324856
                ]
            }
        },
        {
            "type": "Feature",
            "properties": {
                "name": "寧夏診所",
                "type": "兒童醫療補助特約醫療院所",
                "phone": "(02)25586060",
                "address": "臺北市大同區民生西路236號",
                "district": "大同區"
            },
            "geometry": {
                "type": "Point",
                "coordinates": [
                    121.51441999781616,
                    25.05689001877647
                ]
            }
        },
        {
            "type": "Feature",
            "properties": {
                "name": "建順診所",
                "type": "兒童醫療補助特約醫療院所",
                "phone": "(02)25573250",
                "address": "臺北市大同區甘州街51號",
                "district": "大同區"
            },
            "geometry": {
                "type": "Point",
                "coordinates": [
                    121.51284998353236,
                    25.059670002693153
                ]
            }
        },
        {
            "type": "Feature",
            "properties": {
                "name": "黃博裕小兒科診所",
                "type": "兒童醫療補助特約醫療院所",
                "phone": "(02)25592440",
                "address": "臺北市大同區赤峰街49巷21號",
                "district": "大同區"
            },
            "geometry": {
                "type": "Point",
                "coordinates": [
                    121.5202699794994,
                    25.055760012499874
                ]
            }
        },
        {
            "type": "Feature",
            "properties": {
                "name": "臺北市立聯合醫院附設大同門診部",
                "type": "兒童醫療補助特約醫療院所",
                "phone": "(02)25948971",
                "address": "臺北市大同區昌吉街52號1至2樓",
                "district": "大同區"
            },
            "geometry": {
                "type": "Point",
                "coordinates": [
                    121.51634004037658,
                    25.065809998226257
                ]
            }
        },
        {
            "type": "Feature",
            "properties": {
                "name": "羅源彰診所",
                "type": "兒童醫療補助特約醫療院所",
                "phone": "(02)25552500",
                "address": "臺北市大同區長安西路137號",
                "district": "大同區"
            },
            "geometry": {
                "type": "Point",
                "coordinates": [
                    121.515089963337,
                    25.05141998876418
                ]
            }
        },
        {
            "type": "Feature",
            "properties": {
                "name": "新林牙醫診所",
                "type": "兒童醫療補助特約醫療院所",
                "phone": "(02)25923254",
                "address": "臺北市大同區哈密街113號",
                "district": "大同區"
            },
            "geometry": {
                "type": "Point",
                "coordinates": [
                    121.51409000228813,
                    25.072999994770157
                ]
            }
        },
        {
            "type": "Feature",
            "properties": {
                "name": "趙黎海診所",
                "type": "兒童醫療補助特約醫療院所",
                "phone": "(02)25862385",
                "address": "臺北市大同區哈密街67號",
                "district": "大同區"
            },
            "geometry": {
                "type": "Point",
                "coordinates": [
                    121.5152000177257,
                    25.073060009196894
                ]
            }
        },
        {
            "type": "Feature",
            "properties": {
                "name": "澤康診所",
                "type": "兒童醫療補助特約醫療院所",
                "phone": "(02)25960922",
                "address": "臺北市大同區重慶北路3段71號",
                "district": "大同區"
            },
            "geometry": {
                "type": "Point",
                "coordinates": [
                    121.51390995900795,
                    25.06636001871263
                ]
            }
        },
        {
            "type": "Feature",
            "properties": {
                "name": "張漢權內科診所",
                "type": "兒童醫療補助特約醫療院所",
                "phone": "(02)25505998",
                "address": "臺北市大同區重慶北路一段92號",
                "district": "大同區"
            },
            "geometry": {
                "type": "Point",
                "coordinates": [
                    121.51392999175653,
                    25.052649991145657
                ]
            }
        },
        {
            "type": "Feature",
            "properties": {
                "name": "羅志弘診所",
                "type": "兒童醫療補助特約醫療院所",
                "phone": "(02)25921666",
                "address": "臺北市大同區重慶北路三段115號",
                "district": "大同區"
            },
            "geometry": {
                "type": "Point",
                "coordinates": [
                    121.51392999175653,
                    25.067480008614936
                ]
            }
        },
        {
            "type": "Feature",
            "properties": {
                "name": "余自興眼科診所",
                "type": "兒童醫療補助特約醫療院所",
                "phone": "(02)25959320",
                "address": "臺北市大同區重慶北路三段213號1樓",
                "district": "大同區"
            },
            "geometry": {
                "type": "Point",
                "coordinates": [
                    121.51398003171852,
                    25.070240001692554
                ]
            }
        },
        {
            "type": "Feature",
            "properties": {
                "name": "施小兒科診所",
                "type": "兒童醫療補助特約醫療院所",
                "phone": "(02)25941935",
                "address": "臺北市大同區重慶北路三段28號",
                "district": "大同區"
            },
            "geometry": {
                "type": "Point",
                "coordinates": [
                    121.51344996016167,
                    25.06508001827872
                ]
            }
        },
        {
            "type": "Feature",
            "properties": {
                "name": "臺北市立聯合醫院中興院區",
                "type": "兒童醫療補助特約醫療院所",
                "phone": "(02)25553000",
                "address": "臺北市大同區鄭州路145號",
                "district": "大同區"
            },
            "geometry": {
                "type": "Point",
                "coordinates": [
                    121.50889003719618,
                    25.05069000881663
                ]
            }
        },
        {
            "type": "Feature",
            "properties": {
                "name": "劉建宏診所",
                "type": "兒童醫療補助特約醫療院所",
                "phone": "(02)27002368",
                "address": "臺北市大安區大安路二段139號1樓",
                "district": "大安區"
            },
            "geometry": {
                "type": "Point",
                "coordinates": [
                    121.5347700000001,
                    25.02634000000006
                ]
            }
        },
        {
            "type": "Feature",
            "properties": {
                "name": "臺北市立聯合醫院仁愛院區",
                "type": "兒童醫療補助特約醫療院所",
                "phone": "(02)25553000",
                "address": "臺北市大安區仁愛路四段10號",
                "district": "大安區"
            },
            "geometry": {
                "type": "Point",
                "coordinates": [
                    121.54562003982517,
                    25.037660005054278
                ]
            }
        },
        {
            "type": "Feature",
            "properties": {
                "name": "中山醫療社團法人中山醫院",
                "type": "兒童醫療補助特約醫療院所",
                "phone": "(02)27081166",
                "address": "臺北市大安區仁愛路四段112巷11號",
                "district": "大安區"
            },
            "geometry": {
                "type": "Point",
                "coordinates": [
                    121.5497099894796,
                    25.03654998961676
                ]
            }
        },
        {
            "type": "Feature",
            "properties": {
                "name": "國泰醫療財團法人國泰綜合醫院",
                "type": "兒童醫療補助特約醫療院所",
                "phone": "(02)23257500",
                "address": "臺北市大安區仁愛路四段280號，266巷6號",
                "district": "大安區"
            },
            "geometry": {
                "type": "Point",
                "coordinates": [
                    121.55281003636907,
                    25.037180015368932
                ]
            }
        },
        {
            "type": "Feature",
            "properties": {
                "name": "宏恩醫療財團法人宏恩綜合醫院",
                "type": "兒童醫療補助特約醫療院所",
                "phone": "(02)27713161",
                "address": "臺北市大安區仁愛路四段71巷1號",
                "district": "大安區"
            },
            "geometry": {
                "type": "Point",
                "coordinates": [
                    121.54702995975828,
                    25.038489981106707
                ]
            }
        },
        {
            "type": "Feature",
            "properties": {
                "name": "松德診所",
                "type": "兒童醫療補助特約醫療院所",
                "phone": "(02)27073326",
                "address": "臺北市大安區四維路170巷16號1樓",
                "district": "大安區"
            },
            "geometry": {
                "type": "Point",
                "coordinates": [
                    121.54727001746522,
                    25.028099983478015
                ]
            }
        },
        {
            "type": "Feature",
            "properties": {
                "name": "黃清浩耳鼻喉科診所",
                "type": "兒童醫療補助特約醫療院所",
                "phone": "(02)27214882",
                "address": "臺北市大安區光復南路430號1樓",
                "district": "大安區"
            },
            "geometry": {
                "type": "Point",
                "coordinates": [
                    121.55736995933455,
                    25.036180012410597
                ]
            }
        },
        {
            "type": "Feature",
            "properties": {
                "name": "臺北市立聯合醫院附設大安門診部",
                "type": "兒童醫療補助特約醫療院所",
                "phone": "(02)27390997",
                "address": "臺北市大安區辛亥路三段15號1樓",
                "district": "大安區"
            },
            "geometry": {
                "type": "Point",
                "coordinates": [
                    121.5442699666807,
                    25.021579994364444
                ]
            }
        },
        {
            "type": "Feature",
            "properties": {
                "name": "許靜瑛小兒科診所",
                "type": "兒童醫療補助特約醫療院所",
                "phone": "(02)23629088",
                "address": "臺北市大安區和平東路一段230號",
                "district": "大安區"
            },
            "geometry": {
                "type": "Point",
                "coordinates": [
                    121.53234000389108,
                    25.02607998672225
                ]
            }
        },
        {
            "type": "Feature",
            "properties": {
                "name": "微笑寶貝診所",
                "type": "兒童醫療補助特約醫療院所",
                "phone": "(02)23938280",
                "address": "臺北市大安區和平東路一段99號1樓",
                "district": "大安區"
            },
            "geometry": {
                "type": "Point",
                "coordinates": [
                    121.52613999393122,
                    25.026999984414786
                ]
            }
        },
        {
            "type": "Feature",
            "properties": {
                "name": "啟誠聯合診所",
                "type": "兒童醫療補助特約醫療院所",
                "phone": "(02)23784380",
                "address": "臺北市大安區和平東路二段120號",
                "district": "大安區"
            },
            "geometry": {
                "type": "Point",
                "coordinates": [
                    121.54293003563907,
                    25.024729997396804
                ]
            }
        },
        {
            "type": "Feature",
            "properties": {
                "name": "景德耳鼻喉科診所",
                "type": "兒童醫療補助特約醫療院所",
                "phone": "(02)27091363",
                "address": "臺北市大安區和平東路二段191號1樓",
                "district": "大安區"
            },
            "geometry": {
                "type": "Point",
                "coordinates": [
                    121.5421100340514,
                    25.025250010669808
                ]
            }
        },
        {
            "type": "Feature",
            "properties": {
                "name": "健華診所",
                "type": "兒童醫療補助特約醫療院所",
                "phone": "(02)27072990",
                "address": "臺北市大安區和平東路二段255號,257號4樓",
                "district": "大安區"
            },
            "geometry": {
                "type": "Point",
                "coordinates": [
                    121.5437300044781,
                    25.025000020407603
                ]
            }
        },
        {
            "type": "Feature",
            "properties": {
                "name": "施崇仁耳鼻喉科診所",
                "type": "兒童醫療補助特約醫療院所",
                "phone": "(02)27091592",
                "address": "臺北市大安區和平東路二段311巷13號",
                "district": "大安區"
            },
            "geometry": {
                "type": "Point",
                "coordinates": [
                    121.54521997158656,
                    25.02518999624307
                ]
            }
        },
        {
            "type": "Feature",
            "properties": {
                "name": "全家聯合診所",
                "type": "兒童醫療補助特約醫療院所",
                "phone": "(02)27067575",
                "address": "臺北市大安區和平東路二段353號",
                "district": "大安區"
            },
            "geometry": {
                "type": "Point",
                "coordinates": [
                    121.5461600020277,
                    25.024860000715066
                ]
            }
        },
        {
            "type": "Feature",
            "properties": {
                "name": "安吉耳鼻喉科診所",
                "type": "兒童醫療補助特約醫療院所",
                "phone": "(02)27385008",
                "address": "臺北市大安區和平東路三段226號",
                "district": "大安區"
            },
            "geometry": {
                "type": "Point",
                "coordinates": [
                    121.55443000679577,
                    25.022319990686285
                ]
            }
        },
        {
            "type": "Feature",
            "properties": {
                "name": "大安黃耳鼻喉科診所",
                "type": "兒童醫療補助特約醫療院所",
                "phone": "(02)27317331",
                "address": "臺北市大安區和平東路三段234號1樓",
                "district": "大安區"
            },
            "geometry": {
                "type": "Point",
                "coordinates": [
                    121.55479000953716,
                    25.02198002069349
                ]
            }
        },
        {
            "type": "Feature",
            "properties": {
                "name": "和欣視光眼科診所",
                "type": "兒童醫療補助特約醫療院所",
                "phone": "(02)27381568",
                "address": "臺北市大安區和平東路三段274號1樓",
                "district": "大安區"
            },
            "geometry": {
                "type": "Point",
                "coordinates": [
                    121.55581000333456,
                    25.021050006626666
                ]
            }
        },
        {
            "type": "Feature",
            "properties": {
                "name": "邱醫師診所",
                "type": "兒童醫療補助特約醫療院所",
                "phone": "(02)27392696",
                "address": "臺北市大安區和平東路三段288號",
                "district": "大安區"
            },
            "geometry": {
                "type": "Point",
                "coordinates": [
                    121.55607000997105,
                    25.02080001636446
                ]
            }
        },
        {
            "type": "Feature",
            "properties": {
                "name": "那明珠診所",
                "type": "兒童醫療補助特約醫療院所",
                "phone": "(02)27360589",
                "address": "臺北市大安區和平東路三段8號1樓",
                "district": "大安區"
            },
            "geometry": {
                "type": "Point",
                "coordinates": [
                    121.54993998890274,
                    25.024660008505293
                ]
            }
        },
        {
            "type": "Feature",
            "properties": {
                "name": "慈民骨科診所",
                "type": "兒童醫療補助特約醫療院所",
                "phone": "(02)27069888",
                "address": "臺北市大安區延吉街233巷2號",
                "district": "大安區"
            },
            "geometry": {
                "type": "Point",
                "coordinates": [
                    121.55580002886978,
                    25.036909992358133
                ]
            }
        },
        {
            "type": "Feature",
            "properties": {
                "name": "延吉診所",
                "type": "兒童醫療補助特約醫療院所",
                "phone": "(02)27035082",
                "address": "臺北市大安區延吉街241巷2弄5號1樓",
                "district": "大安區"
            },
            "geometry": {
                "type": "Point",
                "coordinates": [
                    121.55593003218803,
                    25.03587998218643
                ]
            }
        },
        {
            "type": "Feature",
            "properties": {
                "name": "林繼國診所",
                "type": "兒童醫療補助特約醫療院所",
                "phone": "(02)27315568",
                "address": "臺北市大安區忠孝東路三段217巷1弄12號",
                "district": "大安區"
            },
            "geometry": {
                "type": "Point",
                "coordinates": [
                    121.53910998326683,
                    25.0424000132095
                ]
            }
        },
        {
            "type": "Feature",
            "properties": {
                "name": "黃文香兒科診所",
                "type": "兒童醫療補助特約醫療院所",
                "phone": "(02)27313305",
                "address": "臺北市大安區忠孝東路四段250號2樓之1",
                "district": "大安區"
            },
            "geometry": {
                "type": "Point",
                "coordinates": [
                    121.5543099779423,
                    25.041190001667104
                ]
            }
        },
        {
            "type": "Feature",
            "properties": {
                "name": "中心診所醫療財團法人中心綜合醫院",
                "type": "兒童醫療補助特約醫療院所",
                "phone": "(02)27510221",
                "address": "臺北市大安區忠孝東路四段77號",
                "district": "大安區"
            },
            "geometry": {
                "type": "Point",
                "coordinates": [
                    121.54731997360818,
                    25.041860009097434
                ]
            }
        },
        {
            "type": "Feature",
            "properties": {
                "name": "星星親子眼科診所",
                "type": "兒童醫療補助特約醫療院所",
                "phone": "(02)27080809",
                "address": "臺北市大安區信義路三段114號2樓",
                "district": "大安區"
            },
            "geometry": {
                "type": "Point",
                "coordinates": [
                    121.53857002106429,
                    25.033269983266138
                ]
            }
        },
        {
            "type": "Feature",
            "properties": {
                "name": "杏誠復健科診所",
                "type": "兒童醫療補助特約醫療院所",
                "phone": "(02)27061732",
                "address": "臺北市大安區信義路四段173號2樓",
                "district": "大安區"
            },
            "geometry": {
                "type": "Point",
                "coordinates": [
                    121.55046000217573,
                    25.033429993797753
                ]
            }
        },
        {
            "type": "Feature",
            "properties": {
                "name": "夏爾診所",
                "type": "兒童醫療補助特約醫療院所",
                "phone": "(02)23255508",
                "address": "臺北市大安區信義路四段265巷54號",
                "district": "大安區"
            },
            "geometry": {
                "type": "Point",
                "coordinates": [
                    121.55568000001631,
                    25.035069996973064
                ]
            }
        },
        {
            "type": "Feature",
            "properties": {
                "name": "珍世明眼科診所",
                "type": "兒童醫療補助特約醫療院所",
                "phone": "(02)27552298",
                "address": "臺北市大安區信義路四段98號2樓",
                "district": "大安區"
            },
            "geometry": {
                "type": "Point",
                "coordinates": [
                    121.54792003405652,
                    25.03308000743067
                ]
            }
        },
        {
            "type": "Feature",
            "properties": {
                "name": "尹書田醫療財團法人書田泌尿科眼科診所",
                "type": "兒童醫療補助特約醫療院所",
                "phone": "(02)23690211",
                "address": "臺北市大安區建國南路二段276號",
                "district": "大安區"
            },
            "geometry": {
                "type": "Point",
                "coordinates": [
                    121.53726998788176,
                    25.025170005404007
                ]
            }
        },
        {
            "type": "Feature",
            "properties": {
                "name": "黃禎祥診所",
                "type": "兒童醫療補助特約醫療院所",
                "phone": "(02)23626607",
                "address": "臺北市大安區師大路71號",
                "district": "大安區"
            },
            "geometry": {
                "type": "Point",
                "coordinates": [
                    121.5285799659456,
                    25.023679996386022
                ]
            }
        },
        {
            "type": "Feature",
            "properties": {
                "name": "樂益耳鼻喉科診所",
                "type": "兒童醫療補助特約醫療院所",
                "phone": "(02)27096199",
                "address": "臺北市大安區復興南路二段161號",
                "district": "大安區"
            },
            "geometry": {
                "type": "Point",
                "coordinates": [
                    121.54369002279998,
                    25.027999987373136
                ]
            }
        },
        {
            "type": "Feature",
            "properties": {
                "name": "大安耳鼻喉科診所",
                "type": "兒童醫療補助特約醫療院所",
                "phone": "(02)27005855",
                "address": "臺北市大安區復興南路二段163號",
                "district": "大安區"
            },
            "geometry": {
                "type": "Point",
                "coordinates": [
                    121.54369002279998,
                    25.027940014855915
                ]
            }
        },
        {
            "type": "Feature",
            "properties": {
                "name": "宇寧身心診所",
                "type": "兒童醫療補助特約醫療院所",
                "phone": "(02)27080706",
                "address": "臺北市大安區復興南路二段6號3F",
                "district": "大安區"
            },
            "geometry": {
                "type": "Point",
                "coordinates": [
                    121.54368449829336,
                    25.030636138345773
                ]
            }
        },
        {
            "type": "Feature",
            "properties": {
                "name": "頂好林耳鼻喉科診所",
                "type": "兒童醫療補助特約醫療院所",
                "phone": "(02)27783142",
                "address": "臺北市大安區敦化南路一段160巷50號1樓",
                "district": "大安區"
            },
            "geometry": {
                "type": "Point",
                "coordinates": [
                    121.54690004025906,
                    25.04347997952415
                ]
            }
        },
        {
            "type": "Feature",
            "properties": {
                "name": "禾馨新生婦幼診所",
                "type": "兒童醫療補助特約醫療院所",
                "phone": "(02)55713333",
                "address": "臺北市大安區新生南路三段2號1~3樓",
                "district": "大安區"
            },
            "geometry": {
                "type": "Point",
                "coordinates": [
                    121.53493998643705,
                    25.02484998434076
                ]
            }
        },
        {
            "type": "Feature",
            "properties": {
                "name": "小禾馨小兒專科診所",
                "type": "兒童醫療補助特約醫療院所",
                "phone": "(02)23698833",
                "address": "臺北市大安區新生南路三段4號",
                "district": "大安區"
            },
            "geometry": {
                "type": "Point",
                "coordinates": [
                    121.53460001644424,
                    25.025569989823538
                ]
            }
        },
        {
            "type": "Feature",
            "properties": {
                "name": "博安家庭醫學科診所",
                "type": "兒童醫療補助特約醫療院所",
                "phone": "(02)23567066",
                "address": "臺北市大安區麗水街3號",
                "district": "大安區"
            },
            "geometry": {
                "type": "Point",
                "coordinates": [
                    121.52903996479188,
                    25.032240015003936
                ]
            }
        },
        {
            "type": "Feature",
            "properties": {
                "name": "呂小兒科診所",
                "type": "兒童醫療補助特約醫療院所",
                "phone": "(02)27000708",
                "address": "臺北市大安區通化街24巷6號1樓",
                "district": "大安區"
            },
            "geometry": {
                "type": "Point",
                "coordinates": [
                    121.55388996077414,
                    25.03173999257001
                ]
            }
        },
        {
            "type": "Feature",
            "properties": {
                "name": "中崙聯合診所",
                "type": "兒童醫療補助特約醫療院所",
                "phone": "(02)27711501",
                "address": "臺北市中山區八德路二段303號",
                "district": "中山區"
            },
            "geometry": {
                "type": "Point",
                "coordinates": [
                    121.54257003289769,
                    25.047340013574498
                ]
            }
        },
        {
            "type": "Feature",
            "properties": {
                "name": "台灣基督長老教會馬偕醫療財團法人馬偕兒童醫院",
                "type": "兒童醫療補助特約醫療院所",
                "phone": "(02)25433535",
                "address": "臺北市中山區中山北路二段92號",
                "district": "中山區"
            },
            "geometry": {
                "type": "Point",
                "coordinates": [
                    121.52255999926598,
                    25.058880008318866
                ]
            }
        },
        {
            "type": "Feature",
            "properties": {
                "name": "台灣基督長老教會馬偕醫療財團法人馬偕紀念醫院",
                "type": "兒童醫療補助特約醫療院所",
                "phone": "(02)25433535",
                "address": "臺北市中山區中山北路二段92號",
                "district": "中山區"
            },
            "geometry": {
                "type": "Point",
                "coordinates": [
                    121.52255999926598,
                    25.058880008318866
                ]
            }
        },
        {
            "type": "Feature",
            "properties": {
                "name": "周賢章耳鼻喉科診所",
                "type": "兒童醫療補助特約醫療院所",
                "phone": "(02)25213101",
                "address": "臺北市中山區天祥路26號1樓",
                "district": "中山區"
            },
            "geometry": {
                "type": "Point",
                "coordinates": [
                    121.52095997776883,
                    25.061240016976953
                ]
            }
        },
        {
            "type": "Feature",
            "properties": {
                "name": "愛鄰診所",
                "type": "兒童醫療補助特約醫療院所",
                "phone": "(02)25322333",
                "address": "臺北市中山區北安路520-1號",
                "district": "中山區"
            },
            "geometry": {
                "type": "Point",
                "coordinates": [
                    121.546099987601,
                    25.079690010789633
                ]
            }
        },
        {
            "type": "Feature",
            "properties": {
                "name": "北安聯合診所",
                "type": "兒童醫療補助特約醫療院所",
                "phone": "(02)25337777",
                "address": "臺北市中山區北安路569-3號",
                "district": "中山區"
            },
            "geometry": {
                "type": "Point",
                "coordinates": [
                    121.54830996019223,
                    25.08090999679682
                ]
            }
        },
        {
            "type": "Feature",
            "properties": {
                "name": "惟廉診所",
                "type": "兒童醫療補助特約醫療院所",
                "phone": "(02)25323036",
                "address": "臺北市中山區北安路595巷1號B1",
                "district": "中山區"
            },
            "geometry": {
                "type": "Point",
                "coordinates": [
                    121.54856279691752,
                    25.08217110685744
                ]
            }
        },
        {
            "type": "Feature",
            "properties": {
                "name": "迪昇牙醫診所",
                "type": "兒童醫療補助特約醫療院所",
                "phone": "(02)25336399",
                "address": "臺北市中山區北安路595巷20弄3號",
                "district": "中山區"
            },
            "geometry": {
                "type": "Point",
                "coordinates": [
                    121.5476199619228,
                    25.081970014181906
                ]
            }
        },
        {
            "type": "Feature",
            "properties": {
                "name": "柏泉內科小兒科診所",
                "type": "兒童醫療補助特約醫療院所",
                "phone": "(02)25331730",
                "address": "臺北市中山區北安路595巷20弄5號",
                "district": "中山區"
            },
            "geometry": {
                "type": "Point",
                "coordinates": [
                    121.54764996913616,
                    25.081860001702722
                ]
            }
        },
        {
            "type": "Feature",
            "properties": {
                "name": "大直診所",
                "type": "兒童醫療補助特約醫療院所",
                "phone": "(02)25332339",
                "address": "臺北市中山區北安路595巷2弄2、6號",
                "district": "中山區"
            },
            "geometry": {
                "type": "Point",
                "coordinates": [
                    121.54835846460662,
                    25.08209190417575
                ]
            }
        },
        {
            "type": "Feature",
            "properties": {
                "name": "固廉診所",
                "type": "兒童醫療補助特約醫療院所",
                "phone": "(02)25323036",
                "address": "臺北市中山區北安路613號1樓",
                "district": "中山區"
            },
            "geometry": {
                "type": "Point",
                "coordinates": [
                    121.54879996625186,
                    25.08256999081121
                ]
            }
        },
        {
            "type": "Feature",
            "properties": {
                "name": "高固廉診所",
                "type": "兒童醫療補助特約醫療院所",
                "phone": "(02)25323036",
                "address": "臺北市中山區北安路613號1樓, 595巷1號B1",
                "district": "中山區"
            },
            "geometry": {
                "type": "Point",
                "coordinates": [
                    121.54856279691752,
                    25.08217110685744
                ]
            }
        },
        {
            "type": "Feature",
            "properties": {
                "name": "莊宇龍診所",
                "type": "兒童醫療補助特約醫療院所",
                "phone": "(02)25331255",
                "address": "臺北市中山區北安路637號",
                "district": "中山區"
            },
            "geometry": {
                "type": "Point",
                "coordinates": [
                    121.549029965675,
                    25.083699997087805
                ]
            }
        },
        {
            "type": "Feature",
            "properties": {
                "name": "雙連婦產科小兒科診所",
                "type": "兒童醫療補助特約醫療院所",
                "phone": "(02)25222350",
                "address": "臺北市中山區民生西路30號4樓",
                "district": "中山區"
            },
            "geometry": {
                "type": "Point",
                "coordinates": [
                    121.52169004153541,
                    25.0576399895631
                ]
            }
        },
        {
            "type": "Feature",
            "properties": {
                "name": "鄭志誠小兒科診所",
                "type": "兒童醫療補助特約醫療院所",
                "phone": "(02)25512246",
                "address": "臺北市中山區民生東路一段8號",
                "district": "中山區"
            },
            "geometry": {
                "type": "Point",
                "coordinates": [
                    121.52338997531842,
                    25.057849998147162
                ]
            }
        },
        {
            "type": "Feature",
            "properties": {
                "name": "陳炯輝診所",
                "type": "兒童醫療補助特約醫療院所",
                "phone": "(02)25221796",
                "address": "臺北市中山區民生東路二段103號",
                "district": "中山區"
            },
            "geometry": {
                "type": "Point",
                "coordinates": [
                    121.5312800284155,
                    25.058099988409367
                ]
            }
        },
        {
            "type": "Feature",
            "properties": {
                "name": "民生承安診所",
                "type": "兒童醫療補助特約醫療院所",
                "phone": "(02)25032633",
                "address": "臺北市中山區民生東路三段90號",
                "district": "中山區"
            },
            "geometry": {
                "type": "Point",
                "coordinates": [
                    121.54350000505497,
                    25.05745001372763
                ]
            }
        },
        {
            "type": "Feature",
            "properties": {
                "name": "興安診所",
                "type": "兒童醫療補助特約醫療院所",
                "phone": "(02)25052228",
                "address": "臺北市中山區民生東路三段90號2樓, 2樓之3",
                "district": "中山區"
            },
            "geometry": {
                "type": "Point",
                "coordinates": [
                    121.54350000505497,
                    25.05745001372763
                ]
            }
        },
        {
            "type": "Feature",
            "properties": {
                "name": "杏慈診所",
                "type": "兒童醫療補助特約醫療院所",
                "phone": "(02)25013109",
                "address": "臺北市中山區民權東路二段152巷2之1號",
                "district": "中山區"
            },
            "geometry": {
                "type": "Point",
                "coordinates": [
                    121.53497996811524,
                    25.061980013298793
                ]
            }
        },
        {
            "type": "Feature",
            "properties": {
                "name": "慶恩小兒科診所",
                "type": "兒童醫療補助特約醫療院所",
                "phone": "(02)25683199",
                "address": "臺北市中山區吉林路117號",
                "district": "中山區"
            },
            "geometry": {
                "type": "Point",
                "coordinates": [
                    121.53030001629622,
                    25.056730008244855
                ]
            }
        },
        {
            "type": "Feature",
            "properties": {
                "name": "德容聯合診所",
                "type": "兒童醫療補助特約醫療院所",
                "phone": "(02)25643076",
                "address": "臺北市中山區吉林路197號",
                "district": "中山區"
            },
            "geometry": {
                "type": "Point",
                "coordinates": [
                    121.53036003072299,
                    25.059869994902925
                ]
            }
        },
        {
            "type": "Feature",
            "properties": {
                "name": "光華家醫科診所",
                "type": "兒童醫療補助特約醫療院所",
                "phone": "(02)25094567",
                "address": "臺北市中山區松江路21號",
                "district": "中山區"
            },
            "geometry": {
                "type": "Point",
                "coordinates": [
                    121.53313997273011,
                    25.046720004196615
                ]
            }
        },
        {
            "type": "Feature",
            "properties": {
                "name": "臺北市立聯合醫院附設中山門診部",
                "type": "兒童醫療補助特約醫療院所",
                "phone": "(02)25013317",
                "address": "臺北市中山區松江路367號1樓",
                "district": "中山區"
            },
            "geometry": {
                "type": "Point",
                "coordinates": [
                    121.53356996436304,
                    25.06444001806176
                ]
            }
        },
        {
            "type": "Feature",
            "properties": {
                "name": "協和婦女醫院",
                "type": "兒童醫療補助特約醫療院所",
                "phone": "(02)25072222",
                "address": "臺北市中山區松江路85巷5號,93巷6號",
                "district": "中山區"
            },
            "geometry": {
                "type": "Point",
                "coordinates": [
                    121.53391001817488,
                    25.050579996337447
                ]
            }
        },
        {
            "type": "Feature",
            "properties": {
                "name": "四季和安婦幼診所",
                "type": "兒童醫療補助特約醫療院所",
                "phone": "(02)25677310",
                "address": "臺北市中山區林森北路452號地下1樓、458號及458號3樓",
                "district": "中山區"
            },
            "geometry": {
                "type": "Point",
                "coordinates": [
                    121.52545997012663,
                    25.06075998538209
                ]
            }
        },
        {
            "type": "Feature",
            "properties": {
                "name": "臺北市立聯合醫院林森院區",
                "type": "兒童醫療補助特約醫療院所",
                "phone": "(02)25553000",
                "address": "臺北市中山區林森北路530號",
                "district": "中山區"
            },
            "geometry": {
                "type": "Point",
                "coordinates": [
                    121.52552995901812,
                    25.06344001510341
                ]
            }
        },
        {
            "type": "Feature",
            "properties": {
                "name": "晴光診所",
                "type": "兒童醫療補助特約醫療院所",
                "phone": "(02)25853210",
                "address": "臺北市中山區林森北路556號1樓",
                "district": "中山區"
            },
            "geometry": {
                "type": "Point",
                "coordinates": [
                    121.5255499917667,
                    25.06433998004735
                ]
            }
        },
        {
            "type": "Feature",
            "properties": {
                "name": "蔡國賢耳鼻喉科診所",
                "type": "兒童醫療補助特約醫療院所",
                "phone": "(02)25178178",
                "address": "臺北市中山區長安東路二段108-2號1樓",
                "district": "中山區"
            },
            "geometry": {
                "type": "Point",
                "coordinates": [
                    121.5353600036052,
                    25.04831000931948
                ]
            }
        },
        {
            "type": "Feature",
            "properties": {
                "name": "木生婦產科診所",
                "type": "兒童醫療補助特約醫療院所",
                "phone": "(02)25012312",
                "address": "臺北市中山區長安東路二段90號1-4樓、88號4樓",
                "district": "中山區"
            },
            "geometry": {
                "type": "Point",
                "coordinates": [
                    121.534470013126,
                    25.048319983784253
                ]
            }
        },
        {
            "type": "Feature",
            "properties": {
                "name": "長春眼科聯合診所",
                "type": "兒童醫療補助特約醫療院所",
                "phone": "(02)25177060",
                "address": "臺北市中山區建國北路二段66號",
                "district": "中山區"
            },
            "geometry": {
                "type": "Point",
                "coordinates": [
                    121.53645996075892,
                    25.054419997639215
                ]
            }
        },
        {
            "type": "Feature",
            "properties": {
                "name": "晉宏診所",
                "type": "兒童醫療補助特約醫療院所",
                "phone": "(02)25054727",
                "address": "臺北市中山區復興北路514巷56號",
                "district": "中山區"
            },
            "geometry": {
                "type": "Point",
                "coordinates": [
                    121.54165003520512,
                    25.065900019866362
                ]
            }
        },
        {
            "type": "Feature",
            "properties": {
                "name": "樂群診所",
                "type": "兒童醫療補助特約醫療院所",
                "phone": "(02)85012268",
                "address": "臺北市中山區樂群二路210之2號",
                "district": "中山區"
            },
            "geometry": {
                "type": "Point",
                "coordinates": [
                    121.55925002021678,
                    25.07951000941894
                ]
            }
        },
        {
            "type": "Feature",
            "properties": {
                "name": "正恩耳鼻喉科診所",
                "type": "兒童醫療補助特約醫療院所",
                "phone": "(02)25052293",
                "address": "臺北市中山區錦州街321號",
                "district": "中山區"
            },
            "geometry": {
                "type": "Point",
                "coordinates": [
                    121.53851000663752,
                    25.06032001928442
                ]
            }
        },
        {
            "type": "Feature",
            "properties": {
                "name": "龍江小兒科診所",
                "type": "兒童醫療補助特約醫療院所",
                "phone": "(02)25152433",
                "address": "臺北市中山區龍江路181-1號1樓",
                "district": "中山區"
            },
            "geometry": {
                "type": "Point",
                "coordinates": [
                    121.54074001197739,
                    25.055209992013502
                ]
            }
        },
        {
            "type": "Feature",
            "properties": {
                "name": "寧康聯合診所",
                "type": "兒童醫療補助特約醫療院所",
                "phone": "(02)25013862",
                "address": "臺北市中山區龍江路209巷6-1號",
                "district": "中山區"
            },
            "geometry": {
                "type": "Point",
                "coordinates": [
                    121.5409799858653,
                    25.056459985234056
                ]
            }
        },
        {
            "type": "Feature",
            "properties": {
                "name": "中山適康復健科診所",
                "type": "兒童醫療補助特約醫療院所",
                "phone": "(02)25155150",
                "address": "臺北市中山區龍江路268號、270號2樓之1",
                "district": "中山區"
            },
            "geometry": {
                "type": "Point",
                "coordinates": [
                    121.54085059035913,
                    25.061344437635142
                ]
            }
        },
        {
            "type": "Feature",
            "properties": {
                "name": "榮星診所",
                "type": "兒童醫療補助特約醫療院所",
                "phone": "(02)25168112",
                "address": "臺北市中山區龍江路272號",
                "district": "中山區"
            },
            "geometry": {
                "type": "Point",
                "coordinates": [
                    121.5406400158725,
                    25.06060001675999
                ]
            }
        },
        {
            "type": "Feature",
            "properties": {
                "name": "國立臺灣大學醫學院附設醫院",
                "type": "兒童醫療補助特約醫療院所",
                "phone": "(02)23123456",
                "address": "臺北市中正區中山南路7號",
                "district": "中正區"
            },
            "geometry": {
                "type": "Point",
                "coordinates": [
                    121.51855998743258,
                    25.04078000087327
                ]
            }
        },
        {
            "type": "Feature",
            "properties": {
                "name": "國立臺灣大學醫學院附設醫院兒童醫院",
                "type": "兒童醫療補助特約醫療院所",
                "phone": "(02)23123456",
                "address": "臺北市中正區中山南路8號",
                "district": "中正區"
            },
            "geometry": {
                "type": "Point",
                "coordinates": [
                    121.51819001022642,
                    25.041949988828023
                ]
            }
        },
        {
            "type": "Feature",
            "properties": {
                "name": "臺北市立聯合醫院和平院區",
                "type": "兒童醫療補助特約醫療院所",
                "phone": "(02)25553000",
                "address": "臺北市中正區中華路二段33號",
                "district": "中正區"
            },
            "geometry": {
                "type": "Point",
                "coordinates": [
                    121.5067000135345,
                    25.035579993871778
                ]
            }
        },
        {
            "type": "Feature",
            "properties": {
                "name": "醫療財團法人好心肝基金會好心肝診所",
                "type": "兒童醫療補助特約醫療院所",
                "phone": "(02)23700827",
                "address": "臺北市中正區公園路30號2樓-2、8F-1、8F-2",
                "district": "中正區"
            },
            "geometry": {
                "type": "Point",
                "coordinates": [
                    121.51684999536576,
                    25.04447000801771
                ]
            }
        },
        {
            "type": "Feature",
            "properties": {
                "name": "醫療財團法人徐元智先生醫藥基金會遠東聯合診所",
                "type": "兒童醫療補助特約醫療院所",
                "phone": "(02)23111525",
                "address": "臺北市中正區永綏街8號",
                "district": "中正區"
            },
            "geometry": {
                "type": "Point",
                "coordinates": [
                    121.51103999536065,
                    25.042999989838805
                ]
            }
        },
        {
            "type": "Feature",
            "properties": {
                "name": "劉瑞聰診所",
                "type": "兒童醫療補助特約醫療院所",
                "phone": "(02)23038125",
                "address": "臺北市中正區汀州路一段194號",
                "district": "中正區"
            },
            "geometry": {
                "type": "Point",
                "coordinates": [
                    121.509179967227,
                    25.028109999852305
                ]
            }
        },
        {
            "type": "Feature",
            "properties": {
                "name": "朱小兒科診所",
                "type": "兒童醫療補助特約醫療院所",
                "phone": "(02)23651810",
                "address": "臺北市中正區汀州路一段220號1樓",
                "district": "中正區"
            },
            "geometry": {
                "type": "Point",
                "coordinates": [
                    121.51161365708317,
                    25.02687742691226
                ]
            }
        },
        {
            "type": "Feature",
            "properties": {
                "name": "同安中醫診所",
                "type": "兒童醫療補助特約醫療院所",
                "phone": "(02)23687998",
                "address": "臺北市中正區同安街41號",
                "district": "中正區"
            },
            "geometry": {
                "type": "Point",
                "coordinates": [
                    121.52242999594773,
                    25.02479998628833
                ]
            }
        },
        {
            "type": "Feature",
            "properties": {
                "name": "和眾綜合診所",
                "type": "兒童醫療補助特約醫療院所",
                "phone": "(02)23818766",
                "address": "臺北市中正區忠孝西路一段6號",
                "district": "中正區"
            },
            "geometry": {
                "type": "Point",
                "coordinates": [
                    121.51813997026449,
                    25.045819997343145
                ]
            }
        },
        {
            "type": "Feature",
            "properties": {
                "name": "天心中醫診所",
                "type": "兒童醫療補助特約醫療院所",
                "phone": "(02)23615050",
                "address": "臺北市中正區武昌街一段33號",
                "district": "中正區"
            },
            "geometry": {
                "type": "Point",
                "coordinates": [
                    121.51199997473134,
                    25.04414998695448
                ]
            }
        },
        {
            "type": "Feature",
            "properties": {
                "name": "嘉貝牙醫診所",
                "type": "兒童醫療補助特約醫療院所",
                "phone": "(02)23517708",
                "address": "臺北市中正區信義路二段257號",
                "district": "中正區"
            },
            "geometry": {
                "type": "Point",
                "coordinates": [
                    121.53152000230341,
                    25.03382000375251
                ]
            }
        },
        {
            "type": "Feature",
            "properties": {
                "name": "池振坤耳鼻喉科診所",
                "type": "兒童醫療補助特約醫療院所",
                "phone": "(02)23972684",
                "address": "臺北市中正區南昌路一段88號2樓",
                "district": "中正區"
            },
            "geometry": {
                "type": "Point",
                "coordinates": [
                    121.5185600000001,
                    25.032470000000046
                ]
            }
        },
        {
            "type": "Feature",
            "properties": {
                "name": "臺北市立聯合醫院附設中正門診部",
                "type": "兒童醫療補助特約醫療院所",
                "phone": "(02)25553000",
                "address": "臺北市中正區牯嶺街24號",
                "district": "中正區"
            },
            "geometry": {
                "type": "Point",
                "coordinates": [
                    121.51595003042183,
                    25.030489999349456
                ]
            }
        },
        {
            "type": "Feature",
            "properties": {
                "name": "小禾馨懷寧小兒專科診所",
                "type": "兒童醫療補助特約醫療院所",
                "phone": "(02)23110353",
                "address": "臺北市中正區重慶南路一段99號2樓",
                "district": "中正區"
            },
            "geometry": {
                "type": "Point",
                "coordinates": [
                    121.51333001512722,
                    25.043040013426463
                ]
            }
        },
        {
            "type": "Feature",
            "properties": {
                "name": "周正成小兒科診所",
                "type": "兒童醫療補助特約醫療院所",
                "phone": "(02)23516830",
                "address": "臺北市中正區徐州路24號",
                "district": "中正區"
            },
            "geometry": {
                "type": "Point",
                "coordinates": [
                    121.52334999364024,
                    25.040619990341654
                ]
            }
        },
        {
            "type": "Feature",
            "properties": {
                "name": "臺北市立聯合醫院婦幼院區",
                "type": "兒童醫療補助特約醫療院所",
                "phone": "(02)25553000",
                "address": "臺北市中正區福州街12號",
                "district": "中正區"
            },
            "geometry": {
                "type": "Point",
                "coordinates": [
                    121.519249985702,
                    25.029099986436364
                ]
            }
        },
        {
            "type": "Feature",
            "properties": {
                "name": "郵政醫院（委託中英醫療社團法人經營）",
                "type": "兒童醫療補助特約醫療院所",
                "phone": "(02)23956755",
                "address": "臺北市中正區福州街14號",
                "district": "中正區"
            },
            "geometry": {
                "type": "Point",
                "coordinates": [
                    121.51868999075083,
                    25.028739983694976
                ]
            }
        },
        {
            "type": "Feature",
            "properties": {
                "name": "永育樂群診所",
                "type": "兒童醫療補助特約醫療院所",
                "phone": "(02)85012268",
                "address": "臺北市中正區樂群二路210之2號(1樓)",
                "district": "中正區"
            },
            "geometry": {
                "type": "Point",
                "coordinates": [
                    121.55925002021678,
                    25.07951000941894
                ]
            }
        },
        {
            "type": "Feature",
            "properties": {
                "name": "禾馨婦產科診所",
                "type": "兒童醫療補助特約醫療院所",
                "phone": "(02)23612323",
                "address": "臺北市中正區懷寧街78號、78號2樓",
                "district": "中正區"
            },
            "geometry": {
                "type": "Point",
                "coordinates": [
                    121.51400864931843,
                    25.043270664471226
                ]
            }
        },
        {
            "type": "Feature",
            "properties": {
                "name": "育睿診所",
                "type": "兒童醫療補助特約醫療院所",
                "phone": "(02)26560801",
                "address": "臺北市內湖區內湖路一段217巷35號",
                "district": "內湖區"
            },
            "geometry": {
                "type": "Point",
                "coordinates": [
                    121.56539001574993,
                    25.083769985979316
                ]
            }
        },
        {
            "type": "Feature",
            "properties": {
                "name": "魏穀年診所",
                "type": "兒童醫療補助特約醫療院所",
                "phone": "(02)26572691",
                "address": "臺北市內湖區內湖路一段403號",
                "district": "內湖區"
            },
            "geometry": {
                "type": "Point",
                "coordinates": [
                    121.57058998084187,
                    25.081860001702722
                ]
            }
        },
        {
            "type": "Feature",
            "properties": {
                "name": "敏聖內兒科診所",
                "type": "兒童醫療補助特約醫療院所",
                "phone": "(02)27987856",
                "address": "臺北市內湖區內湖路一段737巷27號1樓",
                "district": "內湖區"
            },
            "geometry": {
                "type": "Point",
                "coordinates": [
                    121.57865999340015,
                    25.079560007471386
                ]
            }
        },
        {
            "type": "Feature",
            "properties": {
                "name": "仁弘耳鼻喉科診所",
                "type": "兒童醫療補助特約醫療院所",
                "phone": "(02)26596360",
                "address": "臺北市內湖區內湖路一段737巷50弄37號",
                "district": "內湖區"
            },
            "geometry": {
                "type": "Point",
                "coordinates": [
                    121.57839998676366,
                    25.080690013747983
                ]
            }
        },
        {
            "type": "Feature",
            "properties": {
                "name": "焉醫師診所",
                "type": "兒童醫療補助特約醫療院所",
                "phone": "(02)27995008",
                "address": "臺北市內湖區內湖路二段21號",
                "district": "內湖區"
            },
            "geometry": {
                "type": "Point",
                "coordinates": [
                    121.57944998777447,
                    25.078820011149546
                ]
            }
        },
        {
            "type": "Feature",
            "properties": {
                "name": "中國醫藥大學附設醫院臺北分院",
                "type": "兒童醫療補助特約醫療院所",
                "phone": "(02)27919696",
                "address": "臺北市內湖區內湖路二段360號",
                "district": "內湖區"
            },
            "geometry": {
                "type": "Point",
                "coordinates": [
                    121.59060001447358,
                    25.08212000833923
                ]
            }
        },
        {
            "type": "Feature",
            "properties": {
                "name": "立安診所",
                "type": "兒童醫療補助特約醫療院所",
                "phone": "(02)27933632",
                "address": "臺北市內湖區內湖路二段365號",
                "district": "內湖區"
            },
            "geometry": {
                "type": "Point",
                "coordinates": [
                    121.59231998100518,
                    25.08379001872791
                ]
            }
        },
        {
            "type": "Feature",
            "properties": {
                "name": "適康復健科診所",
                "type": "兒童醫療補助特約醫療院所",
                "phone": "(02)87977566",
                "address": "臺北市內湖區文德路141號、143號",
                "district": "內湖區"
            },
            "geometry": {
                "type": "Point",
                "coordinates": [
                    121.58433707405683,
                    25.078652034925746
                ]
            }
        },
        {
            "type": "Feature",
            "properties": {
                "name": "思維診所",
                "type": "兒童醫療補助特約醫療院所",
                "phone": "(02)26575779",
                "address": "臺北市內湖區文德路25號",
                "district": "內湖區"
            },
            "geometry": {
                "type": "Point",
                "coordinates": [
                    121.58055002874721,
                    25.07864000977885
                ]
            }
        },
        {
            "type": "Feature",
            "properties": {
                "name": "文德耳鼻喉科診所",
                "type": "兒童醫療補助特約醫療院所",
                "phone": "(02)87971942",
                "address": "臺北市內湖區文德路32號",
                "district": "內湖區"
            },
            "geometry": {
                "type": "Point",
                "coordinates": [
                    121.57999003379604,
                    25.078319988715606
                ]
            }
        },
        {
            "type": "Feature",
            "properties": {
                "name": "林登山耳鼻喉科診所",
                "type": "兒童醫療補助特約醫療院所",
                "phone": "(02)26596638",
                "address": "臺北市內湖區文德路96號",
                "district": "內湖區"
            },
            "geometry": {
                "type": "Point",
                "coordinates": [
                    121.58253997638008,
                    25.07820000177165
                ]
            }
        },
        {
            "type": "Feature",
            "properties": {
                "name": "禾馨民權婦幼診所",
                "type": "兒童醫療補助特約醫療院所",
                "phone": "(02)55713333",
                "address": "臺北市內湖區民權東路六段42號2-4樓之1、之2、之3",
                "district": "內湖區"
            },
            "geometry": {
                "type": "Point",
                "coordinates": [
                    121.58167999311428,
                    25.06772999887714
                ]
            }
        },
        {
            "type": "Feature",
            "properties": {
                "name": "禾馨內湖婦幼診所",
                "type": "兒童醫療補助特約醫療院所",
                "phone": "(02)55713333",
                "address": "臺北市內湖區民權東路六段42號5-6樓之1、之2、之3",
                "district": "內湖區"
            },
            "geometry": {
                "type": "Point",
                "coordinates": [
                    121.60406998433365,
                    25.071309993542414
                ]
            }
        },
        {
            "type": "Feature",
            "properties": {
                "name": "內湖長春診所",
                "type": "兒童醫療補助特約醫療院所",
                "phone": "(02)27926868",
                "address": "臺北市內湖區民權東路六段64號",
                "district": "內湖區"
            },
            "geometry": {
                "type": "Point",
                "coordinates": [
                    121.58489998503813,
                    25.068699994622122
                ]
            }
        },
        {
            "type": "Feature",
            "properties": {
                "name": "臺北市立聯合醫院附設內湖門診部",
                "type": "兒童醫療補助特約醫療院所",
                "phone": "(02)27908387",
                "address": "臺北市內湖區民權東路六段99號",
                "district": "內湖區"
            },
            "geometry": {
                "type": "Point",
                "coordinates": [
                    121.58893000408494,
                    25.069220007895126
                ]
            }
        },
        {
            "type": "Feature",
            "properties": {
                "name": "三軍總醫院附設民眾診療服務處",
                "type": "兒童醫療補助特約醫療院所",
                "phone": "(02)87923311",
                "address": "臺北市內湖區成功路二段325號",
                "district": "內湖區"
            },
            "geometry": {
                "type": "Point",
                "coordinates": [
                    121.59054997451165,
                    25.070190003640107
                ]
            }
        },
        {
            "type": "Feature",
            "properties": {
                "name": "康寧醫療財團法人康寧醫院",
                "type": "兒童醫療補助特約醫療院所",
                "phone": "(02)26345500",
                "address": "臺北市內湖區成功路五段420巷26號",
                "district": "內湖區"
            },
            "geometry": {
                "type": "Point",
                "coordinates": [
                    121.6084200244436,
                    25.075030007900224
                ]
            }
        },
        {
            "type": "Feature",
            "properties": {
                "name": "成功復健科診所",
                "type": "兒童醫療補助特約醫療院所",
                "phone": "(02)27938098",
                "address": "臺北市內湖區成功路四段12號2-4樓, 16號",
                "district": "內湖區"
            },
            "geometry": {
                "type": "Point",
                "coordinates": [
                    121.59312980883327,
                    25.082848622060656
                ]
            }
        },
        {
            "type": "Feature",
            "properties": {
                "name": "成功耳鼻喉科診所",
                "type": "兒童醫療補助特約醫療院所",
                "phone": "(02)27940064",
                "address": "臺北市內湖區成功路四段16號",
                "district": "內湖區"
            },
            "geometry": {
                "type": "Point",
                "coordinates": [
                    121.59109999499799,
                    25.08118001980762
                ]
            }
        },
        {
            "type": "Feature",
            "properties": {
                "name": "品牙醫診所",
                "type": "兒童醫療補助特約醫療院所",
                "phone": "(02)27906882",
                "address": "臺北市內湖區成功路四段175號",
                "district": "內湖區"
            },
            "geometry": {
                "type": "Point",
                "coordinates": [
                    121.59468996412807,
                    25.083669989874437
                ]
            }
        },
        {
            "type": "Feature",
            "properties": {
                "name": "湖欣診所",
                "type": "兒童醫療補助特約醫療院所",
                "phone": "(02)27918350",
                "address": "臺北市內湖區成功路四段327號",
                "district": "內湖區"
            },
            "geometry": {
                "type": "Point",
                "coordinates": [
                    121.59893003366835,
                    25.08453001504975
                ]
            }
        },
        {
            "type": "Feature",
            "properties": {
                "name": "永育醫療大湖診所",
                "type": "兒童醫療補助特約醫療院所",
                "phone": "(02)27906002",
                "address": "臺北市內湖區成功路四段366號",
                "district": "內湖區"
            },
            "geometry": {
                "type": "Point",
                "coordinates": [
                    121.6003599863501,
                    25.084849994203466
                ]
            }
        },
        {
            "type": "Feature",
            "properties": {
                "name": "馬思特診所",
                "type": "兒童醫療補助特約醫療院所",
                "phone": "(02)27925994",
                "address": "臺北市內湖區成功路四段53號",
                "district": "內湖區"
            },
            "geometry": {
                "type": "Point",
                "coordinates": [
                    121.59208000711726,
                    25.081660009492964
                ]
            }
        },
        {
            "type": "Feature",
            "properties": {
                "name": "林孟勳診所",
                "type": "兒童醫療補助特約醫療院所",
                "phone": "(02)87920955",
                "address": "臺北市內湖區成功路四段61巷32弄2號",
                "district": "內湖區"
            },
            "geometry": {
                "type": "Point",
                "coordinates": [
                    121.59332002587303,
                    25.081000018436924
                ]
            }
        },
        {
            "type": "Feature",
            "properties": {
                "name": "薈安診所",
                "type": "兒童醫療補助特約醫療院所",
                "phone": "(02)26578803",
                "address": "臺北市內湖區江南街6號",
                "district": "內湖區"
            },
            "geometry": {
                "type": "Point",
                "coordinates": [
                    121.57829999065876,
                    25.07820000177165
                ]
            }
        },
        {
            "type": "Feature",
            "properties": {
                "name": "小禾馨民權小兒專科診所",
                "type": "兒童醫療補助特約醫療院所",
                "phone": "(02)27910233",
                "address": "臺北市內湖區行忠路191號",
                "district": "內湖區"
            },
            "geometry": {
                "type": "Point",
                "coordinates": [
                    121.5817700147544,
                    25.0674199941882
                ]
            }
        },
        {
            "type": "Feature",
            "properties": {
                "name": "藍曾小兒科診所",
                "type": "兒童醫療補助特約醫療院所",
                "phone": "(02)26335225",
                "address": "臺北市內湖區東湖路132號",
                "district": "內湖區"
            },
            "geometry": {
                "type": "Point",
                "coordinates": [
                    121.61669002921167,
                    25.06800999635273
                ]
            }
        },
        {
            "type": "Feature",
            "properties": {
                "name": "劉淦華診所",
                "type": "兒童醫療補助特約醫療院所",
                "phone": "(02)27905374",
                "address": "臺北市內湖區金龍路43號",
                "district": "內湖區"
            },
            "geometry": {
                "type": "Point",
                "coordinates": [
                    121.59385998807562,
                    25.084869985042545
                ]
            }
        },
        {
            "type": "Feature",
            "properties": {
                "name": "元康牙醫診所",
                "type": "兒童醫療補助特約醫療院所",
                "phone": "(02)26313938",
                "address": "臺北市內湖區康寧路三段165巷23弄3號1F",
                "district": "內湖區"
            },
            "geometry": {
                "type": "Point",
                "coordinates": [
                    121.61209004074897,
                    25.071509985752172
                ]
            }
        },
        {
            "type": "Feature",
            "properties": {
                "name": "東湖張耳鼻喉科診所",
                "type": "兒童醫療補助特約醫療院所",
                "phone": "(02)26331864",
                "address": "臺北市內湖區康寧路三段169號",
                "district": "內湖區"
            },
            "geometry": {
                "type": "Point",
                "coordinates": [
                    121.61170003079422,
                    25.070309990584065
                ]
            }
        },
        {
            "type": "Feature",
            "properties": {
                "name": "魏之明小兒科診所",
                "type": "兒童醫療補助特約醫療院所",
                "phone": "(02)26306968",
                "address": "臺北市內湖區康寧路三段54之6號",
                "district": "內湖區"
            },
            "geometry": {
                "type": "Point",
                "coordinates": [
                    121.60917003713973,
                    25.071650005444724
                ]
            }
        },
        {
            "type": "Feature",
            "properties": {
                "name": "林永正診所",
                "type": "兒童醫療補助特約醫療院所",
                "phone": "(02)26315567",
                "address": "臺北市內湖區康樂街130號",
                "district": "內湖區"
            },
            "geometry": {
                "type": "Point",
                "coordinates": [
                    121.6191600084394,
                    25.071630014605645
                ]
            }
        },
        {
            "type": "Feature",
            "properties": {
                "name": "康樂診所",
                "type": "兒童醫療補助特約醫療院所",
                "phone": "(02)26308800",
                "address": "臺北市內湖區康樂街80, 82, 84號",
                "district": "內湖區"
            },
            "geometry": {
                "type": "Point",
                "coordinates": [
                    121.61886002012477,
                    25.07014000558766
                ]
            }
        },
        {
            "type": "Feature",
            "properties": {
                "name": "康研診所",
                "type": "兒童醫療補助特約醫療院所",
                "phone": "(02)26577257",
                "address": "臺北市內湖區堤頂大道二段409號",
                "district": "內湖區"
            },
            "geometry": {
                "type": "Point",
                "coordinates": [
                    121.56280141242051,
                    25.080638678123254
                ]
            }
        },
        {
            "type": "Feature",
            "properties": {
                "name": "王慶森診所",
                "type": "兒童醫療補助特約醫療院所",
                "phone": "(02)27986052",
                "address": "臺北市內湖區港墘路65號",
                "district": "內湖區"
            },
            "geometry": {
                "type": "Point",
                "coordinates": [
                    121.57829001619399,
                    25.08117000343333
                ]
            }
        },
        {
            "type": "Feature",
            "properties": {
                "name": "內湖恆新復健科診所",
                "type": "兒童醫療補助特約醫療院所",
                "phone": "(02)26278666",
                "address": "臺北市內湖區瑞光路337號C棟7樓",
                "district": "內湖區"
            },
            "geometry": {
                "type": "Point",
                "coordinates": [
                    121.5733238125224,
                    25.077186644114356
                ]
            }
        },
        {
            "type": "Feature",
            "properties": {
                "name": "國泰醫療財團法人內湖國泰診所",
                "type": "兒童醫療補助特約醫療院所",
                "phone": "(02)87972121",
                "address": "臺北市內湖區瑞光路504、506號、508號2F",
                "district": "內湖區"
            },
            "geometry": {
                "type": "Point",
                "coordinates": [
                    121.56815553055576,
                    25.07939337474052
                ]
            }
        },
        {
            "type": "Feature",
            "properties": {
                "name": "陳森豊診所",
                "type": "兒童醫療補助特約醫療院所",
                "phone": "(02)27990361",
                "address": "臺北市內湖區環山路一段2號",
                "district": "內湖區"
            },
            "geometry": {
                "type": "Point",
                "coordinates": [
                    121.56539001574993,
                    25.08279001576956
                ]
            }
        },
        {
            "type": "Feature",
            "properties": {
                "name": "禾安耳鼻喉科診所",
                "type": "兒童醫療補助特約醫療院所",
                "phone": "(02)87918066",
                "address": "臺北市內湖區康寧路１段７５號",
                "district": "內湖區"
            },
            "geometry": {
                "type": "Point",
                "coordinates": [
                    121.59273999817333,
                    25.079959991890917
                ]
            }
        },
        {
            "type": "Feature",
            "properties": {
                "name": "佳霖診所",
                "type": "兒童醫療補助特約醫療院所",
                "phone": "(02)26334535",
                "address": "臺北市內湖區東湖路147號2樓",
                "district": "內湖區"
            },
            "geometry": {
                "type": "Point",
                "coordinates": [
                    121.61719000973608,
                    25.068139999670976
                ]
            }
        },
        {
            "type": "Feature",
            "properties": {
                "name": "房國堂小兒專科診所",
                "type": "兒童醫療補助特約醫療院所",
                "phone": "(02)86616527",
                "address": "臺北市文山區木新路二段269號",
                "district": "文山區"
            },
            "geometry": {
                "type": "Point",
                "coordinates": [
                    121.56618998458896,
                    24.982970014672247
                ]
            }
        },
        {
            "type": "Feature",
            "properties": {
                "name": "泓仁診所",
                "type": "兒童醫療補助特約醫療院所",
                "phone": "(02)29382627",
                "address": "臺北市文山區木新路二段273號",
                "district": "文山區"
            },
            "geometry": {
                "type": "Point",
                "coordinates": [
                    121.56609996294884,
                    24.98294000745888
                ]
            }
        },
        {
            "type": "Feature",
            "properties": {
                "name": "大豐耳鼻喉科診所",
                "type": "兒童醫療補助特約醫療院所",
                "phone": "(02)29371299",
                "address": "臺北市文山區木新路三段220號",
                "district": "文山區"
            },
            "geometry": {
                "type": "Point",
                "coordinates": [
                    121.55942997967799,
                    24.98149999649334
                ]
            }
        },
        {
            "type": "Feature",
            "properties": {
                "name": "世誠耳鼻喉科診所",
                "type": "兒童醫療補助特約醫療院所",
                "phone": "(02)22343618",
                "address": "臺北市文山區忠順街一段107號",
                "district": "文山區"
            },
            "geometry": {
                "type": "Point",
                "coordinates": [
                    121.55944003796179,
                    24.984200017053723
                ]
            }
        },
        {
            "type": "Feature",
            "properties": {
                "name": "許至文耳鼻喉科診所",
                "type": "兒童醫療補助特約醫療院所",
                "phone": "(02)86614918",
                "address": "臺北市文山區指南路一段2號",
                "district": "文山區"
            },
            "geometry": {
                "type": "Point",
                "coordinates": [
                    121.56877001820538,
                    24.98755998676063
                ]
            }
        },
        {
            "type": "Feature",
            "properties": {
                "name": "臺北市立聯合醫院附設政大門診部",
                "type": "兒童醫療補助特約醫療院所",
                "phone": "(02)82377441",
                "address": "臺北市文山區指南路二段117號",
                "district": "文山區"
            },
            "geometry": {
                "type": "Point",
                "coordinates": [
                    121.57652998416523,
                    24.987609984813076
                ]
            }
        },
        {
            "type": "Feature",
            "properties": {
                "name": "震杰小兒科診所",
                "type": "兒童醫療補助特約醫療院所",
                "phone": "(02)89351869",
                "address": "臺北市文山區景興路129號1樓",
                "district": "文山區"
            },
            "geometry": {
                "type": "Point",
                "coordinates": [
                    121.54481001270227,
                    24.9944300041508
                ]
            }
        },
        {
            "type": "Feature",
            "properties": {
                "name": "黃偉志小兒科診所",
                "type": "兒童醫療補助特約醫療院所",
                "phone": "(02)29354556",
                "address": "臺北市文山區萬慶街12號1樓",
                "district": "文山區"
            },
            "geometry": {
                "type": "Point",
                "coordinates": [
                    121.54006996263752,
                    24.992399991020747
                ]
            }
        },
        {
            "type": "Feature",
            "properties": {
                "name": "興隆李內兒科診所",
                "type": "兒童醫療補助特約醫療院所",
                "phone": "(02)29314537",
                "address": "臺北市文山區興隆路一段12號",
                "district": "文山區"
            },
            "geometry": {
                "type": "Point",
                "coordinates": [
                    121.53935004097377,
                    25.004180001562545
                ]
            }
        },
        {
            "type": "Feature",
            "properties": {
                "name": "興隆內科小兒科診所",
                "type": "兒童醫療補助特約醫療院所",
                "phone": "(02)29311736",
                "address": "臺北市文山區興隆路二段17號",
                "district": "文山區"
            },
            "geometry": {
                "type": "Point",
                "coordinates": [
                    121.55925999468155,
                    24.99077000421974
                ]
            }
        },
        {
            "type": "Feature",
            "properties": {
                "name": "屈銘軒小兒科診所",
                "type": "兒童醫療補助特約醫療院所",
                "phone": "(02)29308518",
                "address": "臺北市文山區興隆路二段301巷4-2號",
                "district": "文山區"
            },
            "geometry": {
                "type": "Point",
                "coordinates": [
                    121.55348000188985,
                    25.001760020387252
                ]
            }
        },
        {
            "type": "Feature",
            "properties": {
                "name": "林建輝小兒科診所",
                "type": "兒童醫療補助特約醫療院所",
                "phone": "(02)29334933",
                "address": "臺北市文山區興隆路二段70號",
                "district": "文山區"
            },
            "geometry": {
                "type": "Point",
                "coordinates": [
                    121.54799999741277,
                    24.99973998172196
                ]
            }
        },
        {
            "type": "Feature",
            "properties": {
                "name": "景升診所",
                "type": "兒童醫療補助特約醫療院所",
                "phone": "(02)29356632",
                "address": "臺北市文山區興隆路二段93-1號1樓及B1, 95巷1號2樓",
                "district": "文山區"
            },
            "geometry": {
                "type": "Point",
                "coordinates": [
                    121.54705996697169,
                    24.999430018942533
                ]
            }
        },
        {
            "type": "Feature",
            "properties": {
                "name": "臺北市立萬芳醫院－委託財團法人臺北醫學大學辦理",
                "type": "兒童醫療補助特約醫療院所",
                "phone": "(02)29307930",
                "address": "臺北市文山區興隆路三段111號",
                "district": "文山區"
            },
            "geometry": {
                "type": "Point",
                "coordinates": [
                    121.5576700314682,
                    24.999630011152306
                ]
            }
        },
        {
            "type": "Feature",
            "properties": {
                "name": "葉洪小兒科診所",
                "type": "兒童醫療補助特約醫療院所",
                "phone": "(02)22300055",
                "address": "臺北市文山區興隆路三段202號",
                "district": "文山區"
            },
            "geometry": {
                "type": "Point",
                "coordinates": [
                    121.55906000247182,
                    24.99774001771479
                ]
            }
        },
        {
            "type": "Feature",
            "properties": {
                "name": "澤文診所",
                "type": "兒童醫療補助特約醫療院所",
                "phone": "(02)29386243",
                "address": "臺北市文山區興隆路四段133號1樓",
                "district": "文山區"
            },
            "geometry": {
                "type": "Point",
                "coordinates": [
                    121.56155001444813,
                    24.98540998668662
                ]
            }
        },
        {
            "type": "Feature",
            "properties": {
                "name": "德安小兒科診所",
                "type": "兒童醫療補助特約醫療院所",
                "phone": "(02)29395299",
                "address": "臺北市文山區興隆路四段6-10號1樓",
                "district": "文山區"
            },
            "geometry": {
                "type": "Point",
                "coordinates": [
                    121.55955998299623,
                    24.989670005156512
                ]
            }
        },
        {
            "type": "Feature",
            "properties": {
                "name": "洪佑承小兒專科診所",
                "type": "兒童醫療補助特約醫療院所",
                "phone": "(02)29364708",
                "address": "臺北市文山區興隆路四段64之2號1樓",
                "district": "文山區"
            },
            "geometry": {
                "type": "Point",
                "coordinates": [
                    121.56132001502499,
                    24.985129989211046
                ]
            }
        },
        {
            "type": "Feature",
            "properties": {
                "name": "徐慧玲診所",
                "type": "兒童醫療補助特約醫療院所",
                "phone": "(02)22340000",
                "address": "臺北市文山區興隆路四段99號",
                "district": "文山區"
            },
            "geometry": {
                "type": "Point",
                "coordinates": [
                    121.56044997347539,
                    24.988299983082484
                ]
            }
        },
        {
            "type": "Feature",
            "properties": {
                "name": "佳鴻診所",
                "type": "兒童醫療補助特約醫療院所",
                "phone": "(02)29333096",
                "address": "臺北市文山區羅斯福路六段256號1樓",
                "district": "文山區"
            },
            "geometry": {
                "type": "Point",
                "coordinates": [
                    121.54018001702622,
                    24.991859986908665
                ]
            }
        },
        {
            "type": "Feature",
            "properties": {
                "name": "景美醫院",
                "type": "兒童醫療補助特約醫療院所",
                "phone": "(02)29331010",
                "address": "臺北市文山區羅斯福路六段280號",
                "district": "文山區"
            },
            "geometry": {
                "type": "Point",
                "coordinates": [
                    121.53991003592495,
                    24.991149997800193
                ]
            }
        },
        {
            "type": "Feature",
            "properties": {
                "name": "明月牙醫診所",
                "type": "兒童醫療補助特約醫療院所",
                "phone": "(02)28941988",
                "address": "臺北市北投區大興街25號",
                "district": "北投區"
            },
            "geometry": {
                "type": "Point",
                "coordinates": [
                    121.49856001208468,
                    25.130090017397933
                ]
            }
        },
        {
            "type": "Feature",
            "properties": {
                "name": "保康耳鼻喉科診所",
                "type": "兒童醫療補助特約醫療院所",
                "phone": "(02)28953343",
                "address": "臺北市北投區中央北路一段148號",
                "district": "北投區"
            },
            "geometry": {
                "type": "Point",
                "coordinates": [
                    121.49870996433248,
                    25.13543000218246
                ]
            }
        },
        {
            "type": "Feature",
            "properties": {
                "name": "黃浩魁小兒科診所",
                "type": "兒童醫療補助特約醫療院所",
                "phone": "(02)28983256",
                "address": "臺北市北投區中央北路一段168號",
                "district": "北投區"
            },
            "geometry": {
                "type": "Point",
                "coordinates": [
                    121.49833001266154,
                    25.135649985231296
                ]
            }
        },
        {
            "type": "Feature",
            "properties": {
                "name": "永安家庭醫學科診所",
                "type": "兒童醫療補助特約醫療院所",
                "phone": "(02)28940888",
                "address": "臺北市北投區中央北路一段172號",
                "district": "北投區"
            },
            "geometry": {
                "type": "Point",
                "coordinates": [
                    121.49823001655665,
                    25.135690008818955
                ]
            }
        },